City_ID,City,Lat,Lng,Max Temp,Humidity,Cloudiness,Wind Speed,Country,Date
0,eganville,45.5334,-77.0994,0.73,95,13,4.65,CA,2023-02-01 00:48:16
1,chuy,-33.6971,-53.4616,71.06,90,6,6.96,UY,2023-02-01 00:48:16
2,poum,-20.2333,164.0167,79.72,64,93,4.85,NC,2023-02-01 00:48:17
3,punta arenas,-53.15,-70.9167,55.51,58,40,21.85,CL,2023-02-01 00:48:18
4,albany,42.6001,-73.9662,23.23,60,89,1.99,US,2023-02-01 00:43:52
5,avarua,-21.2078,-159.775,80.65,74,20,13.8,CK,2023-02-01 00:48:18
6,gaomi,36.3833,119.7528,34.66,42,54,18.16,CN,2023-02-01 00:48:18
7,cape town,-33.9258,18.4232,72.37,79,20,13.0,ZA,2023-02-01 00:45:40
8,hobart,-42.8794,147.3294,58.05,78,100,13.8,AU,2023-02-01 00:48:08
9,hermanus,-34.4187,19.2345,60.8,93,4,3.49,ZA,2023-02-01 00:48:19
10,hithadhoo,-0.6,73.0833,80.85,74,25,12.08,MV,2023-02-01 00:48:20
11,luwuk,-0.9516,122.7875,79.45,86,98,3.0,ID,2023-02-01 00:48:20
12,nago,26.5881,127.9761,64.83,62,6,9.35,JP,2023-02-01 00:48:21
13,ryotsu,38.0833,138.4333,45.84,69,100,25.77,JP,2023-02-01 00:48:21
14,grindavik,63.8424,-22.4338,25.27,86,0,4.61,IS,2023-02-01 00:48:22
15,lakota,5.8528,-5.6883,72.99,90,91,2.19,CI,2023-02-01 00:48:22
16,inhambane,-23.865,35.3833,77.88,66,76,10.69,MZ,2023-02-01 00:48:22
17,sitka,57.0531,-135.33,40.89,70,100,14.97,US,2023-02-01 00:48:23
18,kuching,1.55,110.3333,80.26,89,40,3.44,MY,2023-02-01 00:48:24
19,lebu,-37.6167,-73.65,57.2,83,0,20.69,CL,2023-02-01 00:48:22
20,lagoa,39.05,-27.9833,56.89,69,97,11.9,PT,2023-02-01 00:48:24
21,jamestown,42.097,-79.2353,18.55,77,100,5.75,US,2023-02-01 00:48:24
22,balykshi,47.0667,51.8667,19.4,63,40,11.18,KZ,2023-02-01 00:48:25
23,qaanaaq,77.484,-69.3632,-7.11,47,80,8.23,GL,2023-02-01 00:48:25
24,souillac,-20.5167,57.5167,79.18,83,40,5.75,MU,2023-02-01 00:48:26
25,tasiilaq,65.6145,-37.6368,8.76,75,98,5.97,GL,2023-02-01 00:48:26
26,neiafu,-18.65,-173.9833,84.88,79,75,9.22,TO,2023-02-01 00:48:27
27,mar del plata,-38.0023,-57.5575,69.87,88,75,11.5,AR,2023-02-01 00:48:27
28,rikitea,-23.1203,-134.9692,79.25,73,1,14.05,PF,2023-02-01 00:48:27
29,mataura,-46.1927,168.8643,70.27,75,100,2.24,NZ,2023-02-01 00:48:28
30,provideniya,64.3833,-173.3,23.11,86,100,2.24,RU,2023-02-01 00:48:28
31,longyearbyen,78.2186,15.6401,15.64,67,20,14.97,SJ,2023-02-01 00:48:28
32,puerto escondido,15.85,-97.0667,83.23,74,0,6.91,MX,2023-02-01 00:43:35
33,upernavik,72.7868,-56.1549,-2.87,93,100,13.31,GL,2023-02-01 00:48:29
34,kapaa,22.0752,-159.319,80.58,80,40,9.22,US,2023-02-01 00:48:29
35,hofn,64.2539,-15.2082,27.72,65,87,15.3,IS,2023-02-01 00:48:30
36,ushuaia,-54.8,-68.3,56.86,51,40,13.8,AR,2023-02-01 00:48:30
37,anadyr,64.75,177.4833,28.9,92,75,24.61,RU,2023-02-01 00:48:31
38,vardo,70.3705,31.1107,33.78,75,100,25.32,NO,2023-02-01 00:48:31
39,bathsheba,13.2167,-59.5167,74.01,78,20,5.75,BB,2023-02-01 00:48:32
40,sept-iles,50.2001,-66.3821,5.0,73,40,8.05,CA,2023-02-01 00:48:32
41,asau,46.4333,26.4,29.32,92,44,6.11,RO,2023-02-01 00:48:33
42,barrow,71.2906,-156.7887,-5.78,77,0,27.63,US,2023-02-01 00:48:33
43,butaritari,3.0707,172.7902,80.38,78,100,17.47,KI,2023-02-01 00:48:33
44,kaoma,-14.7833,24.8,63.27,98,100,3.06,ZM,2023-02-01 00:48:34
45,yamada,39.4667,141.95,40.41,55,8,11.81,JP,2023-02-01 00:48:34
46,kodiak,57.79,-152.4072,38.71,93,100,8.05,US,2023-02-01 00:48:35
47,yenagoa,4.9247,6.2642,77.56,86,12,3.83,NG,2023-02-01 00:48:35
48,kununurra,-15.7667,128.7333,85.98,74,75,5.75,AU,2023-02-01 00:48:36
49,suhindol,43.1917,25.1811,36.27,82,30,13.6,BG,2023-02-01 00:48:36
50,williams lake,52.1415,-122.1445,23.05,91,100,9.22,CA,2023-02-01 00:47:29
51,port elizabeth,-33.918,25.5701,68.29,99,40,2.3,ZA,2023-02-01 00:48:37
52,lokosovo,61.1333,74.8167,6.12,97,99,7.78,RU,2023-02-01 00:48:37
53,pisco,-13.7,-76.2167,73.45,78,0,16.11,PE,2023-02-01 00:48:37
54,vostok,46.4856,135.8833,5.54,79,100,1.5,RU,2023-02-01 00:48:38
55,tubalan,6.495,125.5661,78.58,87,76,7.34,PH,2023-02-01 00:48:38
56,codrington,-38.2667,141.9667,61.9,53,100,15.03,AU,2023-02-01 00:48:39
57,tura,25.5198,90.2201,60.94,56,100,2.08,IN,2023-02-01 00:48:39
58,thompson,55.7435,-97.8558,-21.84,69,75,0.0,CA,2023-02-01 00:48:40
59,hilo,19.7297,-155.09,75.61,88,75,5.99,US,2023-02-01 00:48:40
60,puerto carreno,6.189,-67.4859,82.38,51,0,8.05,CO,2023-02-01 00:48:40
61,ribeira grande,38.5167,-28.7,56.77,80,91,4.0,PT,2023-02-01 00:48:41
62,saskylakh,71.9167,114.0833,-23.21,97,100,11.99,RU,2023-02-01 00:48:41
63,atuona,-9.8,-139.0333,79.0,75,100,22.75,PF,2023-02-01 00:48:42
64,busselton,-33.65,115.3333,66.9,50,0,15.64,AU,2023-02-01 00:48:42
65,cap malheureux,-19.9842,57.6142,75.47,84,99,4.0,MU,2023-02-01 00:48:43
66,corinto,37.9407,22.9573,45.9,55,1,11.65,GR,2023-02-01 00:48:43
67,chernyshevsk,52.5243,117.0174,-24.29,99,12,0.18,RU,2023-02-01 00:48:44
68,davila,18.4726,120.5763,73.38,60,1,1.59,PH,2023-02-01 00:48:44
69,kamenka,51.3223,42.7678,29.19,97,100,8.59,RU,2023-02-01 00:48:45
70,pochutla,15.7432,-96.4661,73.18,75,0,2.39,MX,2023-02-01 00:48:46
71,murud,18.3258,72.965,73.11,55,68,8.19,IN,2023-02-01 00:48:46
72,nanortalik,60.1432,-45.2371,14.85,84,100,5.1,GL,2023-02-01 00:48:47
73,tuatapere,-46.1333,167.6833,65.68,86,100,0.63,NZ,2023-02-01 00:48:48
74,deputatskiy,69.3,139.9,-18.98,96,100,5.84,RU,2023-02-01 00:48:48
75,puerto ayora,-0.7393,-90.3518,78.55,90,98,1.01,EC,2023-02-01 00:48:48
76,birjand,32.8663,59.2211,45.07,53,0,18.41,IR,2023-02-01 00:48:49
77,east london,-33.0153,27.9116,71.1,88,4,6.53,ZA,2023-02-01 00:48:49
78,kapoeta,4.7717,33.5903,82.36,33,6,8.19,SS,2023-02-01 00:46:29
79,ambon,-3.6954,128.1814,86.14,70,20,9.22,ID,2023-02-01 00:48:50
80,saint anthony,45.0205,-93.218,7.75,54,20,4.61,US,2023-02-01 00:48:50
81,bengkulu,-3.8004,102.2655,76.59,88,100,4.88,ID,2023-02-01 00:48:51
82,andover,51.2083,-1.4825,42.69,86,16,13.8,GB,2023-02-01 00:48:51
83,bluff,-46.6,168.3333,62.51,89,100,2.21,NZ,2023-02-01 00:48:51
84,cabo san lucas,22.8909,-109.9124,70.52,69,100,5.75,MX,2023-02-01 00:48:52
85,picton,-34.1833,150.6,81.64,56,2,1.59,AU,2023-02-01 00:48:52
86,tuktoyaktuk,69.4541,-133.0374,-36.4,67,0,3.44,CA,2023-02-01 00:48:53
87,puerto penasco,31.3167,-113.5333,57.9,72,11,1.01,MX,2023-02-01 00:48:53
88,geraldton,-28.7667,114.6,84.61,39,0,17.27,AU,2023-02-01 00:48:54
89,luis correia,-2.8792,-41.6669,78.51,87,93,10.98,BR,2023-02-01 00:48:54
90,vaini,-21.2,-175.2,86.16,79,75,11.5,TO,2023-02-01 00:48:55
91,safita,34.8205,36.1153,49.41,79,96,11.48,SY,2023-02-01 00:48:55
92,yellowknife,62.456,-114.3525,-22.45,76,20,10.36,CA,2023-02-01 00:48:56
93,kruisfontein,-34.0033,24.7314,66.56,90,0,2.73,ZA,2023-02-01 00:48:56
94,leshukonskoye,64.8989,45.7622,27.95,91,100,13.42,RU,2023-02-01 00:48:57
95,springfield,37.2153,-93.2982,21.18,68,0,5.75,US,2023-02-01 00:46:24
96,ilulissat,69.2167,-51.1,-0.38,71,20,5.75,GL,2023-02-01 00:48:57
97,meiganga,6.5167,14.3,68.02,31,0,2.82,CM,2023-02-01 00:48:58
98,coahuayana,18.7333,-103.6833,71.98,82,7,2.26,MX,2023-02-01 00:48:58
99,broken hill,-31.95,141.4333,74.62,33,0,14.52,AU,2023-02-01 00:46:43
100,alofi,-19.0595,-169.9187,82.29,83,75,10.36,NU,2023-02-01 00:48:59
101,milkovo,54.7167,158.6167,10.38,80,12,4.65,RU,2023-02-01 00:48:59
102,urucara,-2.5364,-57.76,73.51,98,100,1.66,BR,2023-02-01 00:49:00
103,emba,48.8264,58.1442,4.21,82,1,7.56,KZ,2023-02-01 00:49:00
104,hualmay,-11.0964,-77.6139,72.41,77,100,8.34,PE,2023-02-01 00:49:01
105,rockport,28.0206,-97.0544,39.24,95,100,18.41,US,2023-02-01 00:49:01
106,namibe,-15.1961,12.1522,71.56,83,100,4.25,AO,2023-02-01 00:49:01
107,north bend,43.4065,-124.2243,48.92,78,0,9.22,US,2023-02-01 00:45:26
108,harper,4.375,-7.7169,79.12,85,18,6.64,LR,2023-02-01 00:49:02
109,chokurdakh,70.6333,147.9167,0.5,98,100,5.73,RU,2023-02-01 00:49:03
110,panaba,21.2833,-88.2667,78.06,64,87,8.46,MX,2023-02-01 00:49:03
111,red bluff,40.1785,-122.2358,65.08,17,0,0.0,US,2023-02-01 00:49:04
112,tombouctou,20.0,-3.0,57.02,15,100,11.5,ML,2023-02-01 00:49:04
113,fortuna,40.5982,-124.1573,52.93,62,0,0.0,US,2023-02-01 00:49:04
114,beaverlodge,55.2166,-119.4361,13.35,96,100,1.68,CA,2023-02-01 00:49:05
115,sungai padi,6.0851,101.8766,78.51,94,100,1.79,TH,2023-02-01 00:49:05
116,verkhnevilyuysk,63.4453,120.3167,-25.89,94,99,8.55,RU,2023-02-01 00:49:06
117,hami,42.8,93.45,24.75,32,99,4.68,CN,2023-02-01 00:49:06
118,haines junction,60.7522,-137.5108,16.9,98,97,2.1,CA,2023-02-01 00:49:06
119,winslow,35.0242,-110.6974,39.38,45,0,16.11,US,2023-02-01 00:49:07
120,rawson,-43.3002,-65.1023,61.45,59,0,18.05,AR,2023-02-01 00:46:06
121,flinders,-34.5833,150.8552,82.06,62,15,1.99,AU,2023-02-01 00:49:07
122,bredasdorp,-34.5322,20.0403,65.39,97,17,3.96,ZA,2023-02-01 00:49:08
123,kaeo,-35.1,173.7833,72.32,93,100,7.67,NZ,2023-02-01 00:49:08
124,helena,46.5927,-112.0361,25.41,70,75,5.75,US,2023-02-01 00:49:09
125,gat,31.61,34.7642,54.39,100,49,17.98,IL,2023-02-01 00:49:09
126,khatanga,71.9667,102.5,-43.98,100,71,3.76,RU,2023-02-01 00:49:10
127,ures,29.4333,-110.4,59.16,47,0,6.08,MX,2023-02-01 00:49:10
128,urumqi,43.801,87.6005,5.95,85,100,2.24,CN,2023-02-01 00:49:11
129,castro,-24.7911,-50.0119,63.48,98,100,2.26,BR,2023-02-01 00:49:11
130,manggar,-2.8833,108.2667,80.58,80,97,9.84,ID,2023-02-01 00:47:43
131,conceicao da barra,-18.5933,-39.7322,76.3,84,81,6.82,BR,2023-02-01 00:49:12
132,pilot butte,50.4668,-104.4178,1.02,75,75,8.05,CA,2023-02-01 00:49:12
133,hasaki,35.7333,140.8333,41.4,59,3,14.81,JP,2023-02-01 00:49:12
134,caravelas,-17.7125,-39.2481,75.92,84,86,5.41,BR,2023-02-01 00:49:13
135,washington,47.5001,-120.5015,36.73,58,100,2.91,US,2023-02-01 00:47:55
136,constitucion,-35.3333,-72.4167,55.36,82,0,11.97,CL,2023-02-01 00:48:14
137,carnarvon,-24.8667,113.6333,79.59,70,52,12.71,AU,2023-02-01 00:49:13
138,takoradi,4.8845,-1.7554,78.75,86,56,1.48,GH,2023-02-01 00:49:14
139,olavarria,-36.8927,-60.3225,71.62,74,91,15.61,AR,2023-02-01 00:49:14
140,tevaitoa,-16.7833,-151.5,81.34,75,100,14.54,PF,2023-02-01 00:49:14
141,port lincoln,-34.7333,135.8667,62.69,73,100,16.4,AU,2023-02-01 00:45:11
142,demak,-6.8909,110.6396,80.56,86,100,2.24,ID,2023-02-01 00:49:15
143,georgetown,5.4112,100.3354,80.53,83,20,4.61,MY,2023-02-01 00:46:52
144,iqaluit,63.7506,-68.5145,-14.31,75,75,16.11,CA,2023-02-01 00:49:15
145,carutapera,-1.195,-46.02,75.94,92,100,5.61,BR,2023-02-01 00:49:16
146,victoria,22.2855,114.1577,69.94,83,89,5.01,HK,2023-02-01 00:45:15
147,arraial do cabo,-22.9661,-42.0278,76.96,78,0,14.97,BR,2023-02-01 00:49:16
148,porto torres,40.835,8.3972,39.38,80,0,4.52,IT,2023-02-01 00:49:17
149,eston,51.1501,-108.7514,3.92,100,90,3.56,CA,2023-02-01 00:49:17
150,baruun-urt,46.6806,113.2792,-9.27,88,4,6.31,MN,2023-02-01 00:49:18
151,hecelchakan,20.1667,-90.1333,79.88,59,52,6.46,MX,2023-02-01 00:49:18
152,bethel,41.3712,-73.414,32.31,60,0,6.91,US,2023-02-01 00:49:19
153,airai,-8.9266,125.4092,70.97,73,76,1.92,TL,2023-02-01 00:49:19
154,rundu,-17.9333,19.7667,67.37,91,100,5.32,NA,2023-02-01 00:49:19
155,port alfred,-33.5906,26.891,68.18,95,7,7.27,ZA,2023-02-01 00:49:20
156,fort nelson,58.8053,-122.7002,6.39,86,75,3.44,CA,2023-02-01 00:49:20
157,ballina,-28.8667,153.5667,84.78,83,68,7.7,AU,2023-02-01 00:49:21
158,kahului,20.8947,-156.47,78.82,69,20,3.44,US,2023-02-01 00:49:21
159,jibuti,11.5,42.5,65.5,71,0,16.28,DJ,2023-02-01 00:49:22
160,prince rupert,54.3161,-130.3201,40.69,91,100,33.38,CA,2023-02-01 00:46:02
161,mirador,-6.3708,-44.3631,74.62,85,100,1.14,BR,2023-02-01 00:49:22
162,gazli,40.1333,63.45,44.83,68,100,16.58,UZ,2023-02-01 00:49:23
163,roald,62.5833,6.1333,39.76,87,75,5.75,NO,2023-02-01 00:49:23
164,kaduqli,11.0167,29.7167,74.73,15,64,7.11,SD,2023-02-01 00:49:24
165,padang,-0.9492,100.3543,75.25,87,100,3.4,ID,2023-02-01 00:49:24
166,coolum beach,-26.5333,153.1,86.11,79,93,8.75,AU,2023-02-01 00:49:25
167,nikolskoye,59.7035,30.7861,31.91,90,96,9.08,RU,2023-02-01 00:49:25
168,trincomalee,8.5711,81.2335,75.16,92,100,20.69,LK,2023-02-01 00:49:26
169,ponta do sol,32.6667,-17.1,58.01,76,71,6.42,PT,2023-02-01 00:49:27
170,byron bay,-28.65,153.6167,84.7,78,47,7.81,AU,2023-02-01 00:49:27
171,saldanha,-33.0117,17.9442,60.85,92,0,15.99,ZA,2023-02-01 00:49:28
172,new norfolk,-42.7826,147.0587,57.7,70,100,3.0,AU,2023-02-01 00:49:28
173,hounde,11.5,-3.5167,75.49,10,83,5.44,BF,2023-02-01 00:49:29
174,sabang,5.8933,95.3214,78.17,74,100,5.41,ID,2023-02-01 00:49:29
175,torit,4.4133,32.5678,78.51,37,5,4.03,SS,2023-02-01 00:49:29
176,mosquera,4.7059,-74.2302,57.29,82,20,5.75,CO,2023-02-01 00:49:30
177,guerrero negro,27.9769,-114.0611,58.35,52,9,7.92,MX,2023-02-01 00:49:30
178,axim,4.8699,-2.2405,78.13,85,92,2.01,GH,2023-02-01 00:49:30
179,san policarpo,12.1791,125.5072,79.93,85,28,14.14,PH,2023-02-01 00:49:31
180,esperance,-33.8667,121.9,63.1,64,100,13.49,AU,2023-02-01 00:49:31
181,isangel,-19.55,169.2667,87.91,74,40,2.3,VU,2023-02-01 00:49:32
182,tiznit,29.5833,-9.5,51.37,26,42,17.45,MA,2023-02-01 00:49:32
183,willowmore,-33.2926,23.4895,69.94,63,0,4.81,ZA,2023-02-01 00:49:32
184,tiksi,71.6872,128.8694,-1.28,99,100,10.0,RU,2023-02-01 00:49:33
185,hirara,24.8,125.2833,69.66,73,75,3.44,JP,2023-02-01 00:49:33
186,moosomin,50.1333,-101.6677,-14.82,99,10,3.44,CA,2023-02-01 00:49:34
187,antalaha,-14.9003,50.2788,75.88,89,78,5.59,MG,2023-02-01 00:49:34
188,yibin,28.7667,104.6238,51.89,55,0,3.2,CN,2023-02-01 00:49:34
189,puerto baquerizo moreno,-0.9,-89.6,77.34,80,31,4.29,EC,2023-02-01 00:49:35
190,fare,-16.7,-151.0167,81.48,74,10,13.96,PF,2023-02-01 00:49:35
191,ducheng,23.2373,111.5317,62.53,72,96,3.47,CN,2023-02-01 00:49:36
192,tual,-5.6667,132.75,83.39,74,92,8.05,ID,2023-02-01 00:49:36
193,schiedam,51.9167,4.3833,46.38,75,100,16.11,NL,2023-02-01 00:47:00
194,pangnirtung,66.1451,-65.7125,-21.06,70,100,4.83,CA,2023-02-01 00:49:37
195,saint-philippe,-21.3585,55.7679,74.79,88,100,12.24,RE,2023-02-01 00:49:37
196,les cayes,18.2,-73.75,73.6,77,11,1.54,HT,2023-02-01 00:49:37
197,coquimbo,-29.9533,-71.3436,64.13,88,20,9.22,CL,2023-02-01 00:45:49
198,nakhon thai,17.1006,100.8374,70.7,43,13,2.01,TH,2023-02-01 00:49:38
199,victor harbor,-35.5667,138.6167,63.68,88,100,14.92,AU,2023-02-01 00:49:38
200,piacabucu,-10.4056,-36.4344,77.86,78,100,5.7,BR,2023-02-01 00:49:39
201,ponta delgada,37.7333,-25.6667,54.32,87,20,4.61,PT,2023-02-01 00:47:00
202,sinnamary,5.3833,-52.95,75.16,88,93,5.17,GF,2023-02-01 00:49:39
203,dunedin,-45.8742,170.5036,64.8,99,100,3.0,NZ,2023-02-01 00:46:07
204,cherskiy,68.75,161.3,-12.19,100,60,3.06,RU,2023-02-01 00:49:40
205,bonthe,7.5264,-12.505,76.44,86,0,2.33,SL,2023-02-01 00:49:40
206,valdepenas,38.7621,-3.3848,35.71,48,0,2.24,ES,2023-02-01 00:49:41
207,mogadishu,2.0371,45.3438,76.03,79,40,16.11,SO,2023-02-01 00:46:37
208,naze,28.3667,129.4833,61.72,64,55,10.83,JP,2023-02-01 00:49:41
209,saint-augustin,51.226,-58.6502,-3.57,81,3,10.45,CA,2023-02-01 00:49:42
210,chicama,-7.8447,-79.1469,68.54,66,96,4.74,PE,2023-02-01 00:49:42
211,west university place,29.718,-95.4338,40.93,87,100,17.27,US,2023-02-01 00:45:54
212,ivanivka,46.7208,34.553,33.28,99,100,4.54,UA,2023-02-01 00:49:43
213,chapais,49.7834,-74.8492,-2.42,93,100,9.31,CA,2023-02-01 00:47:46
214,myaundzha,63.0494,147.1858,-6.3,97,100,0.43,RU,2023-02-01 00:49:43
215,muzaffarabad,34.37,73.4711,43.41,61,100,7.45,PK,2023-02-01 00:49:44
216,cockburn town,21.4612,-71.1419,77.04,73,100,21.25,TC,2023-02-01 00:45:53
217,dikson,73.5069,80.5464,-11.24,93,25,9.26,RU,2023-02-01 00:49:44
218,erdemli,36.605,34.3084,47.37,60,100,2.84,TR,2023-02-01 00:49:45
219,bilibino,68.0546,166.4372,4.23,90,84,6.02,RU,2023-02-01 00:49:45
220,havelock,34.8791,-76.9013,58.95,90,100,3.44,US,2023-02-01 00:49:46
221,palembang,-2.9167,104.7458,77.09,94,40,8.05,ID,2023-02-01 00:49:46
222,khandyga,62.6667,135.6,-29.43,92,100,3.94,RU,2023-02-01 00:49:47
223,te anau,-45.4167,167.7167,69.22,69,100,2.33,NZ,2023-02-01 00:49:47
224,ajaccio,42.0,8.9167,39.25,87,0,6.91,FR,2023-02-01 00:49:47
225,grand gaube,-20.0064,57.6608,79.2,84,100,4.0,MU,2023-02-01 00:45:44
226,warragul,-38.1667,145.9333,71.96,43,39,6.44,AU,2023-02-01 00:49:48
227,kedougou,12.5579,-12.1743,77.41,17,3,2.04,SN,2023-02-01 00:49:48
228,coihueco,-36.6167,-71.8333,64.76,35,0,2.66,CL,2023-02-01 00:45:35
229,labuhan,-6.8844,112.2051,80.53,78,100,6.49,ID,2023-02-01 00:49:49
230,henties bay,-22.116,14.2845,64.2,84,100,5.73,NA,2023-02-01 00:49:49
231,sur,22.5667,59.5289,65.23,73,5,5.01,OM,2023-02-01 00:46:20
232,taltal,-25.4,-70.4833,68.67,82,37,2.51,CL,2023-02-01 00:48:26
233,aksu,41.1231,80.2644,14.29,85,100,2.06,CN,2023-02-01 00:49:50
234,anito,12.4497,125.2886,79.02,90,43,11.59,PH,2023-02-01 00:49:50
235,hovd,48.0056,91.6419,-2.24,77,100,1.99,MN,2023-02-01 00:49:50
236,custoias,41.1053,-7.321,32.77,78,5,2.68,PT,2023-02-01 00:49:51
237,tuy hoa,13.0833,109.3,71.6,87,100,4.94,VN,2023-02-01 00:49:52
238,farah,32.5,62.5,49.1,37,100,9.19,AF,2023-02-01 00:49:52
239,praia da vitoria,38.7333,-27.0667,55.65,88,40,10.2,PT,2023-02-01 00:49:52
240,qaqortoq,60.7167,-46.0333,10.17,90,100,3.85,GL,2023-02-01 00:49:53
241,bambous virieux,-20.3428,57.7575,79.05,83,40,5.75,MU,2023-02-01 00:49:53
242,wasilla,61.5814,-149.4394,28.4,91,0,0.0,US,2023-02-01 00:49:54
243,mana,5.6592,-53.7767,74.17,91,79,3.83,GF,2023-02-01 00:49:54
244,krasnoborsk,61.5598,45.934,29.41,89,100,11.18,RU,2023-02-01 00:49:55
245,jining,35.405,116.5814,36.88,34,99,16.64,CN,2023-02-01 00:49:55
246,huilong,31.8111,121.655,49.93,59,28,11.36,CN,2023-02-01 00:46:30
247,redlands,34.0556,-117.1825,59.95,27,0,9.22,US,2023-02-01 00:46:43
248,salamanca,40.8333,-6.0,34.63,90,5,7.23,ES,2023-02-01 00:49:56
249,tiarei,-17.5333,-149.3333,82.42,76,5,14.94,PF,2023-02-01 00:49:56
250,juneau,58.3019,-134.4197,35.1,97,100,0.0,US,2023-02-01 00:48:14
251,santa cruz,-17.8,-63.1667,71.06,94,75,3.44,BO,2023-02-01 00:49:05
252,ayan,56.45,138.1667,-6.25,64,100,13.49,RU,2023-02-01 00:49:57
253,komsomolskiy,40.4272,71.7189,30.92,74,100,2.3,UZ,2023-02-01 00:49:57
254,port-gentil,-0.7193,8.7815,80.33,79,78,15.35,GA,2023-02-01 00:49:58
255,marawi,7.9986,124.2928,76.06,75,10,2.64,PH,2023-02-01 00:49:58
256,norman wells,65.282,-126.8329,-18.36,76,20,9.22,CA,2023-02-01 00:49:59
257,kushmurun,52.4503,64.6311,-3.8,100,58,5.46,KZ,2023-02-01 00:49:59
258,mahebourg,-20.4081,57.7,79.09,83,40,5.75,MU,2023-02-01 00:49:59
259,fuyu,45.1833,124.8167,12.51,91,100,8.63,CN,2023-02-01 00:50:00
260,belyy yar,53.6039,91.3903,-5.91,84,20,0.0,RU,2023-02-01 00:50:00
261,vila franca do campo,37.7167,-25.4333,54.01,82,80,7.52,PT,2023-02-01 00:50:01
262,kavieng,-2.5744,150.7967,84.38,68,97,7.07,PG,2023-02-01 00:50:01
263,ust-maya,60.4167,134.5333,-27.9,94,100,4.56,RU,2023-02-01 00:50:02
264,raudeberg,61.9875,5.1352,39.87,1,100,25.43,NO,2023-02-01 00:50:03
265,la ronge,55.1001,-105.2842,-12.75,70,0,3.44,CA,2023-02-01 00:50:03
266,ankazoabo,-22.2833,44.5167,72.75,77,100,5.53,MG,2023-02-01 00:50:04
267,luderitz,-26.6481,15.1594,60.8,93,2,11.7,NA,2023-02-01 00:50:04
268,rovaniemi,66.5,25.7167,17.01,92,100,4.61,FI,2023-02-01 00:50:05
269,ponnampet,12.15,75.9333,59.29,81,2,3.22,IN,2023-02-01 00:50:05
270,robe,-37.1833,139.75,60.76,63,100,15.88,AU,2023-02-01 00:50:06
271,tucuman,-26.8241,-65.2226,78.8,83,20,2.3,AR,2023-02-01 00:47:05
272,wenling,28.3669,121.36,56.14,74,0,3.15,CN,2023-02-01 00:50:06
273,goulburn,-34.75,149.7167,77.86,31,0,9.86,AU,2023-02-01 00:48:58
274,sinfra,6.6167,-5.9167,73.51,70,39,3.02,CI,2023-02-01 00:50:07
275,taguatinga,-12.3857,-46.5711,77.04,63,55,2.37,BR,2023-02-01 00:50:07
276,acari,-15.4311,-74.6158,74.12,92,100,4.65,PE,2023-02-01 00:50:07
277,leh,34.1667,77.5833,-0.67,88,100,3.29,IN,2023-02-01 00:50:08
278,marsh harbour,26.5412,-77.0636,74.79,74,5,8.16,BS,2023-02-01 00:48:13
279,kishi,9.0833,3.85,78.87,15,94,3.71,NG,2023-02-01 00:50:08
280,oriximina,-1.7656,-55.8661,73.35,92,100,3.11,BR,2023-02-01 00:50:09
281,northam,51.0333,-4.2167,47.61,79,7,19.13,GB,2023-02-01 00:50:09
282,vila velha,-20.3297,-40.2925,78.75,88,20,9.22,BR,2023-02-01 00:50:10
283,ostrovnoy,68.0531,39.5131,18.03,97,87,4.38,RU,2023-02-01 00:50:10
284,teknaf,20.8624,92.3058,64.92,69,100,7.11,BD,2023-02-01 00:50:11
285,clyde river,70.4692,-68.5914,-30.77,68,0,3.44,CA,2023-02-01 00:50:11
286,beringovskiy,63.05,179.3167,22.62,98,67,7.0,RU,2023-02-01 00:50:11
287,chekalin,54.0969,36.245,28.4,94,100,6.04,RU,2023-02-01 00:50:12
288,diego de almagro,-26.3667,-70.05,67.53,55,5,4.9,CL,2023-02-01 00:50:12
289,porosozero,62.7191,32.727,17.73,97,100,5.12,RU,2023-02-01 00:50:13
290,leningradskiy,69.3833,178.4167,6.4,96,100,9.4,RU,2023-02-01 00:50:13
291,aklavik,68.2191,-135.0107,-32.13,100,72,3.74,CA,2023-02-01 00:50:13
292,kudat,6.8837,116.8477,78.73,94,40,3.44,MY,2023-02-01 00:50:14
293,damaturu,11.747,11.9608,72.5,18,100,9.04,NG,2023-02-01 00:50:14
294,salta,-24.7859,-65.4117,79.39,57,40,9.22,AR,2023-02-01 00:50:15
295,guthrie,35.8789,-97.4253,25.88,46,0,4.61,US,2023-02-01 00:50:15
296,preobrazheniye,42.9019,133.9064,24.01,91,100,6.53,RU,2023-02-01 00:50:16
297,los llanos de aridane,28.6585,-17.9182,57.13,69,75,8.01,ES,2023-02-01 00:50:16
298,beloha,-25.1667,45.05,69.17,79,30,12.64,MG,2023-02-01 00:50:17
299,waddan,29.1614,16.139,47.7,75,6,8.55,LY,2023-02-01 00:50:17
300,samarai,-10.6167,150.6667,85.05,67,100,1.28,PG,2023-02-01 00:50:18
301,christchurch,-43.5333,172.6333,73.47,75,40,12.66,NZ,2023-02-01 00:47:49
302,torbay,47.6666,-52.7314,32.58,94,100,6.91,CA,2023-02-01 00:50:18
303,kaitangata,-46.2817,169.8464,70.23,72,98,6.33,NZ,2023-02-01 00:50:19
304,zabaykalsk,49.6333,117.3167,-8.93,95,17,11.14,RU,2023-02-01 00:50:19
305,touba,8.2833,-7.6833,75.38,17,0,1.28,CI,2023-02-01 00:50:20
306,kuryk,43.2,51.65,36.54,65,99,8.57,KZ,2023-02-01 00:50:20
307,ikornnes,62.3873,6.557,39.76,90,100,5.64,NO,2023-02-01 00:50:20
308,broager,54.8874,9.681,40.87,81,75,33.38,DK,2023-02-01 00:50:21
309,vossevangen,60.623,6.4229,38.53,98,100,8.63,NO,2023-02-01 00:50:21
310,newark,40.7357,-74.1724,38.95,45,100,10.36,US,2023-02-01 00:46:33
311,akdepe,42.0551,59.3788,41.09,81,100,12.33,TM,2023-02-01 00:50:22
312,srednekolymsk,67.45,153.6833,-20.2,94,100,4.83,RU,2023-02-01 00:50:22
313,yichun,47.7,128.9,-2.79,90,90,3.4,CN,2023-02-01 00:50:23
314,maragogi,-9.0122,-35.2225,76.77,85,56,8.14,BR,2023-02-01 00:50:23
315,andenes,69.3143,16.1194,31.93,86,40,6.91,NO,2023-02-01 00:50:24
316,garissa,-0.4536,39.6401,75.11,78,0,9.6,KE,2023-02-01 00:50:24
317,kupang,-10.1667,123.5833,77.58,100,100,4.61,ID,2023-02-01 00:50:25
318,guarapari,-20.6667,-40.4975,76.89,89,76,10.98,BR,2023-02-01 00:50:25
319,goderich,43.7501,-81.7165,16.12,67,100,11.5,CA,2023-02-01 00:47:53
320,hokitika,-42.7167,170.9667,66.51,86,100,3.11,NZ,2023-02-01 00:50:13
321,brokopondo,4.75,-55.1667,73.53,90,29,7.16,SR,2023-02-01 00:50:26
322,cienaga,11.007,-74.2476,82.53,57,20,12.66,CO,2023-02-01 00:50:26
323,saint george,37.1041,-113.5841,41.59,27,0,1.99,US,2023-02-01 00:46:09
324,vryburg,-26.9566,24.7284,66.92,65,86,4.36,ZA,2023-02-01 00:50:27
325,gazanjyk,39.2446,55.5154,43.07,80,100,4.56,TM,2023-02-01 00:50:27
326,flin flon,54.7682,-101.865,-16.76,69,0,3.44,CA,2023-02-01 00:45:45
327,prieska,-29.6641,22.7474,70.88,59,13,0.49,ZA,2023-02-01 00:50:28
328,san cristobal,7.7669,-72.225,69.98,90,96,2.8,VE,2023-02-01 00:50:28
329,vadso,70.0744,29.7487,29.28,86,20,13.8,NO,2023-02-01 00:50:29
330,ngunguru,-35.6167,174.5,72.41,81,100,11.41,NZ,2023-02-01 00:50:16
331,san miguel,13.4833,-88.1833,81.16,51,4,3.18,SV,2023-02-01 00:50:29
332,tanout,14.9709,8.8879,65.64,17,14,14.16,NE,2023-02-01 00:50:30
333,outjo,-20.1167,16.15,67.51,52,100,8.63,NA,2023-02-01 00:50:30
334,pinehurst,35.1954,-79.4695,59.72,97,100,0.0,US,2023-02-01 00:49:23
335,alice springs,-23.7,133.8833,76.55,73,100,8.05,AU,2023-02-01 00:50:31
336,alcudia,39.8532,3.1214,43.38,70,0,5.99,ES,2023-02-01 00:50:31
337,awbari,26.5921,12.7805,44.1,35,4,6.4,LY,2023-02-01 00:50:31
338,belomorsk,64.5232,34.7668,17.44,92,24,9.35,RU,2023-02-01 00:50:32
339,lapa,-25.7697,-49.7158,62.67,99,100,3.36,BR,2023-02-01 00:50:32
340,zhangjiakou,40.81,114.8794,13.44,48,15,11.74,CN,2023-02-01 00:50:33
341,batouri,4.4333,14.3667,72.43,49,13,0.89,CM,2023-02-01 00:50:33
342,luena,-11.7833,19.9167,59.67,95,100,2.26,AO,2023-02-01 00:50:33
343,rodrigues alves,-7.738,-72.6509,74.21,95,97,3.15,BR,2023-02-01 00:50:34
344,pagudpud,18.5616,120.7868,79.27,60,1,2.19,PH,2023-02-01 00:50:34
345,havre-saint-pierre,50.2334,-63.5986,8.6,65,0,10.36,CA,2023-02-01 00:50:34
346,sol-iletsk,51.1631,54.9918,-3.14,91,5,5.48,RU,2023-02-01 00:50:35
347,cody,44.5263,-109.0565,13.41,66,0,9.22,US,2023-02-01 00:50:18
348,vestmannaeyjar,63.4427,-20.2734,32.0,70,100,8.93,IS,2023-02-01 00:50:35
349,sao felix do xingu,-6.6447,-51.995,71.71,95,13,1.54,BR,2023-02-01 00:50:36
350,college,64.8569,-147.8028,19.58,84,100,4.61,US,2023-02-01 00:50:36
351,damghan,36.1683,54.348,40.64,94,100,2.68,IR,2023-02-01 00:50:37
352,torrington,41.8007,-73.1212,28.78,65,4,1.99,US,2023-02-01 00:50:37
353,wewak,-3.5534,143.6268,84.7,69,65,7.05,PG,2023-02-01 00:50:38
354,kota kinabalu,5.9749,116.0724,78.78,89,20,3.44,MY,2023-02-01 00:50:38
355,benguela,-12.5763,13.4055,76.8,81,95,2.21,AO,2023-02-01 00:50:38
356,lompoc,34.6391,-120.4579,61.21,60,0,11.01,US,2023-02-01 00:50:39
357,youghal,51.95,-7.8506,41.54,91,96,14.34,IE,2023-02-01 00:50:39
358,bangangte,5.1409,10.5198,65.34,75,8,3.0,CM,2023-02-01 00:50:40
359,athabasca,54.7169,-113.2854,7.21,97,100,2.51,CA,2023-02-01 00:50:30
360,pechenga,69.5259,31.1703,27.77,95,100,9.64,RU,2023-02-01 00:50:40
361,zyryanka,65.75,150.85,-14.66,96,100,5.84,RU,2023-02-01 00:50:41
362,maceio,-9.6658,-35.7353,72.84,100,100,13.8,BR,2023-02-01 00:48:55
363,viedma,-40.8135,-62.9967,62.96,61,93,12.1,AR,2023-02-01 00:50:35
364,raja sansi,31.7192,74.7978,46.26,100,0,3.44,IN,2023-02-01 00:50:41
365,ketchikan,55.3422,-131.6461,42.78,93,100,5.75,US,2023-02-01 00:50:42
366,cidreira,-30.1811,-50.2056,75.36,90,0,7.07,BR,2023-02-01 00:50:42
367,nome,64.5011,-165.4064,23.16,100,100,0.0,US,2023-02-01 00:46:59
368,kiruna,67.8557,20.2251,23.92,80,100,6.91,SE,2023-02-01 00:50:43
369,alnavar,15.4333,74.7333,70.32,63,94,2.84,IN,2023-02-01 00:50:43
370,yongan,39.6957,113.6871,11.35,52,100,5.1,CN,2023-02-01 00:50:43
371,pevek,69.7008,170.3133,6.53,82,4,4.34,RU,2023-02-01 00:50:44
372,port arthur,38.8,121.2667,30.42,48,0,27.72,CN,2023-02-01 00:50:44
373,mortka,59.3322,66.0214,19.63,94,97,8.41,RU,2023-02-01 00:50:45
374,burnie,-41.0667,145.9167,63.95,54,88,13.51,AU,2023-02-01 00:49:13
375,tigil,57.8,158.6667,13.41,88,100,6.91,RU,2023-02-01 00:50:45
376,iralaya,15.0,-83.2333,77.14,83,0,13.0,HN,2023-02-01 00:50:46
377,umm lajj,25.0213,37.2685,64.44,46,95,8.79,SA,2023-02-01 00:50:46
378,narsaq,60.9167,-46.05,19.62,93,100,3.51,GL,2023-02-01 00:50:47
379,merzifon,40.8733,35.4631,31.46,93,75,4.61,TR,2023-02-01 00:50:47
380,oktyabrskoye,43.0645,44.7417,26.74,100,24,4.47,RU,2023-02-01 00:50:48
381,gizo,-8.103,156.8419,84.27,71,97,6.93,SB,2023-02-01 00:50:48
382,cayenne,4.9333,-52.3333,75.24,94,0,2.3,GF,2023-02-01 00:50:48
383,uttaradit,17.6667,100.5,60.03,44,17,2.26,TH,2023-02-01 00:50:49
384,bonoua,5.2741,-3.595,80.22,86,70,3.91,CI,2023-02-01 00:50:49
385,chalons-en-champagne,48.9539,4.3672,44.67,93,100,12.06,FR,2023-02-01 00:50:49
386,malumfashi,11.7853,7.6218,70.29,19,84,8.97,NG,2023-02-01 00:50:50
387,port hedland,-20.3167,118.5667,89.65,55,14,8.05,AU,2023-02-01 00:50:50
388,verdun,49.25,5.3333,42.17,98,100,12.3,FR,2023-02-01 00:50:51
389,bemidji,47.4736,-94.8803,1.17,71,40,3.44,US,2023-02-01 00:50:43
390,kungalv,57.871,11.9805,41.11,88,39,1.01,SE,2023-02-01 00:50:51
391,ponorogo,-7.8685,111.462,80.22,77,100,1.72,ID,2023-02-01 00:50:52
392,ancud,-41.8697,-73.8203,54.23,78,0,2.42,CL,2023-02-01 00:50:52
393,azanka,58.0401,64.7893,21.88,94,100,7.87,RU,2023-02-01 00:50:53
394,wanning,18.8003,110.3967,69.93,85,14,1.34,CN,2023-02-01 00:50:53
395,yulara,-25.2406,130.9889,85.15,23,1,13.44,AU,2023-02-01 00:50:54
396,myanaung,18.2833,95.3167,70.79,71,12,1.99,MM,2023-02-01 00:50:54
397,paragominas,-2.9667,-47.4833,72.12,99,100,5.12,BR,2023-02-01 00:50:54
398,bara,10.3744,10.7288,73.54,19,93,7.78,NG,2023-02-01 00:50:55
399,dingle,10.9995,122.6711,79.7,84,59,12.48,PH,2023-02-01 00:50:55
400,doha,25.2867,51.5333,67.89,68,0,11.5,QA,2023-02-01 00:50:56
401,arraias,-12.9288,-46.9437,70.5,65,17,1.66,BR,2023-02-01 00:50:56
402,mabini,15.6,120.9833,77.9,64,100,4.03,PH,2023-02-01 00:50:56
403,aswan,24.0934,32.907,52.9,25,0,4.61,EG,2023-02-01 00:50:57
404,manresa,41.725,1.8266,46.24,65,0,4.72,ES,2023-02-01 00:50:57
405,merauke,-8.4667,140.3333,83.93,76,100,8.25,ID,2023-02-01 00:50:58
406,hohhot,40.8106,111.6522,-0.11,65,0,4.47,CN,2023-02-01 00:50:58
407,tupa,-21.9347,-50.5136,70.61,91,100,3.36,BR,2023-02-01 00:50:59
408,key largo,25.0865,-80.4473,75.99,78,0,9.82,US,2023-02-01 00:50:59
409,tadine,-21.55,167.8833,83.25,68,97,5.12,NC,2023-02-01 00:50:59
410,gigmoto,13.7796,124.39,79.27,86,41,11.72,PH,2023-02-01 00:51:00
411,mandali,33.7499,45.5541,51.04,71,57,5.3,IQ,2023-02-01 00:51:00
412,bud,39.447,-86.1758,24.22,69,100,8.23,US,2023-02-01 00:51:01
413,san carlos de bariloche,-41.1456,-71.3082,69.55,28,20,6.91,AR,2023-02-01 00:51:01
414,svetlyy,54.675,20.1347,37.45,86,100,25.05,RU,2023-02-01 00:51:01
415,agnibilekrou,7.1344,-3.2047,69.76,46,70,2.46,CI,2023-02-01 00:51:02
416,ozuluama,21.6667,-97.85,68.41,94,35,12.35,MX,2023-02-01 00:51:02
417,stykkisholmur,65.0757,-22.7297,27.84,85,100,13.49,IS,2023-02-01 00:51:03
418,seara,41.1818,-7.8003,41.0,62,6,4.25,PT,2023-02-01 00:51:03
419,coromandel,-18.4733,-47.2003,65.55,89,43,3.51,BR,2023-02-01 00:51:04
420,baykit,61.67,96.37,-9.65,100,100,1.23,RU,2023-02-01 00:51:04
421,novobirilyussy,56.9514,90.6661,1.29,99,100,3.62,RU,2023-02-01 00:51:05
422,porto novo,6.4965,2.6036,77.07,88,99,5.06,BJ,2023-02-01 00:51:05
423,show low,34.2542,-110.0298,35.08,72,100,10.36,US,2023-02-01 00:51:06
424,broome,42.2506,-75.833,22.01,78,0,4.61,US,2023-02-01 00:51:06
425,thunder bay,48.4001,-89.3168,3.18,60,75,5.75,CA,2023-02-01 00:50:29
426,jalu,29.0331,21.5482,51.98,59,5,14.67,LY,2023-02-01 00:51:07
427,sao miguel do guama,-1.6267,-47.4833,73.49,98,100,5.86,BR,2023-02-01 00:51:05
428,saint-georges,12.0564,-61.7485,73.08,83,20,0.0,GD,2023-02-01 00:49:22
429,ozinki,51.1786,49.6769,16.66,88,67,8.25,RU,2023-02-01 00:51:08
430,sao joao da barra,-21.6403,-41.0511,78.89,85,38,20.71,BR,2023-02-01 00:51:08
431,teguise,29.0605,-13.564,57.42,51,20,10.36,ES,2023-02-01 00:51:09
432,balotra,25.8333,72.2333,56.57,45,0,8.72,IN,2023-02-01 00:51:09
433,oranjestad,12.524,-70.027,78.75,73,20,11.5,AW,2023-02-01 00:51:09
434,contramaestre,20.2978,-76.2414,71.96,78,5,5.48,CU,2023-02-01 00:51:10
435,mecca,21.4267,39.8261,71.15,84,25,3.8,SA,2023-02-01 00:51:10
436,olafsvik,64.8945,-23.7142,30.61,82,100,21.92,IS,2023-02-01 00:51:11
437,bayonet point,28.3267,-82.6834,73.4,90,75,6.6,US,2023-02-01 00:51:11
438,banjar,-8.19,114.9675,82.36,80,85,1.54,ID,2023-02-01 00:51:12
439,matara,5.9485,80.5353,73.53,88,100,4.88,LK,2023-02-01 00:50:02
440,vanavara,60.34,102.2797,-6.74,99,100,2.75,RU,2023-02-01 00:51:12
441,villazon,-22.0866,-65.5942,53.76,65,75,10.13,BO,2023-02-01 00:51:13
442,seoul,37.5683,126.9778,35.2,94,100,5.75,KR,2023-02-01 00:50:08
443,sorland,67.667,12.6934,35.46,62,13,8.3,NO,2023-02-01 00:51:13
444,dourbali,11.8091,15.8632,75.42,18,100,10.51,TD,2023-02-01 00:51:14
445,punta alta,-38.8759,-62.0736,66.85,83,100,14.29,AR,2023-02-01 00:51:14
446,barentu,15.1139,37.5928,68.67,40,70,3.31,ER,2023-02-01 00:51:15
447,kutum,14.2,24.6667,65.52,16,15,7.14,SD,2023-02-01 00:51:15
448,sandovo,58.4602,36.4128,27.48,92,100,8.43,RU,2023-02-01 00:51:15
449,zhigansk,66.7697,123.3711,-20.96,99,100,2.08,RU,2023-02-01 00:51:16
450,pramanta,39.5231,21.1014,33.58,63,0,4.83,GR,2023-02-01 00:51:16
451,sakaiminato,35.55,133.2333,44.58,65,75,6.91,JP,2023-02-01 00:51:17
452,dalvik,65.9702,-18.5286,28.33,95,100,13.2,IS,2023-02-01 00:51:17
453,chulumani,-16.4096,-67.5263,63.63,98,85,1.21,BO,2023-02-01 00:51:17
454,columbus,39.9612,-82.9988,23.88,69,75,8.05,US,2023-02-01 00:47:56
455,nemuro,43.3236,145.575,25.57,58,54,8.01,JP,2023-02-01 00:51:18
456,sao filipe,14.8961,-24.4956,70.92,72,100,10.4,CV,2023-02-01 00:51:18
457,lata,40.1629,-8.3327,36.07,79,0,3.29,PT,2023-02-01 00:51:19
458,kholtoson,50.2981,103.3097,-8.81,94,100,3.56,RU,2023-02-01 00:51:19
459,berdigestyakh,62.0989,126.6992,-28.1,97,100,7.43,RU,2023-02-01 00:51:19
460,vallenar,-28.5708,-70.7581,70.21,57,7,3.11,CL,2023-02-01 00:46:48
461,vikesa,58.6376,6.0913,38.88,87,100,20.29,NO,2023-02-01 00:51:20
462,shingu,33.7333,135.9833,51.73,55,99,4.72,JP,2023-02-01 00:51:20
463,yatou,37.15,122.3833,32.74,59,100,22.95,CN,2023-02-01 00:51:21
464,nioro,13.35,-15.75,73.13,18,8,9.01,GM,2023-02-01 00:51:21
465,laguna,38.421,-121.4238,55.38,34,0,5.75,US,2023-02-01 00:47:26
466,ahipara,-35.1667,173.1667,74.19,74,100,8.37,NZ,2023-02-01 00:51:22
467,san rafael,-34.6177,-68.3301,72.23,55,14,17.56,AR,2023-02-01 00:50:19
468,riachao,-7.3619,-46.6172,77.54,67,64,3.51,BR,2023-02-01 00:51:23
469,eldorado,-23.7869,-54.2836,70.21,96,88,3.02,BR,2023-02-01 00:51:23
470,blagoyevo,63.3667,47.9167,27.97,90,99,13.76,RU,2023-02-01 00:51:23
471,kisangani,0.5167,25.2,71.31,76,61,1.57,CD,2023-02-01 00:51:24
472,honjo,36.2333,139.1833,38.68,35,0,1.05,JP,2023-02-01 00:51:24
473,klaksvik,62.2266,-6.589,42.03,81,100,29.17,FO,2023-02-01 00:51:25
474,arlit,18.7369,7.3853,62.24,19,16,7.47,NE,2023-02-01 00:51:25
475,vao,-22.6667,167.4833,78.93,75,77,8.97,NC,2023-02-01 00:51:25
476,paraopeba,-19.2757,-44.4033,68.86,80,36,3.96,BR,2023-02-01 00:51:26
477,yar-sale,66.8333,70.8333,12.85,94,100,16.6,RU,2023-02-01 00:51:26
478,sargatskoye,55.6101,73.4972,-0.96,97,68,6.2,RU,2023-02-01 00:51:27
479,zhuanghe,39.7008,122.9911,25.72,38,0,15.75,CN,2023-02-01 00:51:27
480,severo-kurilsk,50.6789,156.125,25.27,54,46,4.68,RU,2023-02-01 00:51:28
481,birao,10.2849,22.7882,73.4,15,8,5.97,CF,2023-02-01 00:51:28
482,mantua,45.1667,10.7833,36.09,88,1,4.61,IT,2023-02-01 00:51:28
483,shenjiamen,29.9576,122.298,52.93,73,0,10.54,CN,2023-02-01 00:51:29
484,shancheng,34.7953,116.0817,39.63,29,78,18.03,CN,2023-02-01 00:51:29
485,soe,-9.8607,124.284,77.61,69,77,1.79,ID,2023-02-01 00:51:30
486,tambura,5.6,27.4667,75.6,34,52,3.31,SS,2023-02-01 00:51:30
487,pajapan,18.25,-94.7,70.16,92,8,5.91,MX,2023-02-01 00:50:01
488,nhulunbuy,-12.2333,136.7667,88.41,70,40,10.36,AU,2023-02-01 00:51:31
489,meadow lake,34.8014,-106.5436,47.79,32,27,5.3,US,2023-02-01 00:51:31
490,parrita,9.5201,-84.3225,77.65,81,69,3.2,CR,2023-02-01 00:51:31
491,kaspiyskiy,45.3929,47.3707,27.66,80,22,6.51,RU,2023-02-01 00:51:32
492,tacna,-18.0056,-70.2483,68.2,83,75,3.44,PE,2023-02-01 00:51:32
493,kirakira,-10.4544,161.9205,83.12,78,100,7.29,SB,2023-02-01 00:51:33
494,tarko-sale,64.9225,77.785,4.42,94,100,15.08,RU,2023-02-01 00:51:33
495,rapu-rapu,13.1866,124.1256,79.41,83,3,15.95,PH,2023-02-01 00:51:34
496,plymouth,41.8334,-70.8328,30.7,67,0,8.05,US,2023-02-01 00:49:08
497,penzance,50.1186,-5.5371,47.08,71,34,18.61,GB,2023-02-01 00:51:34
498,shiraz,29.6036,52.5388,36.84,93,100,11.5,IR,2023-02-01 00:51:34
499,dharchula,29.85,80.5333,44.26,33,0,10.54,IN,2023-02-01 00:51:35
500,challans,46.8436,-1.8749,44.96,94,100,5.84,FR,2023-02-01 00:51:35
501,san quintin,30.4833,-115.95,56.07,60,24,5.68,MX,2023-02-01 00:51:36
502,kyabe,9.4515,18.9449,82.09,16,5,1.28,TD,2023-02-01 00:51:36
503,ayr,55.4627,-4.6339,44.58,81,40,26.46,GB,2023-02-01 00:51:36
504,mutsu,41.2894,141.2169,31.68,85,98,4.41,JP,2023-02-01 00:51:37
505,yaan,7.3833,8.5667,83.68,40,18,3.04,NG,2023-02-01 00:51:37
506,kourou,5.1552,-52.6478,75.25,91,100,4.0,GF,2023-02-01 00:51:38
507,necochea,-38.5473,-58.7368,65.14,83,100,10.29,AR,2023-02-01 00:51:38
508,novyye burasy,52.1324,46.0714,17.01,95,100,5.1,RU,2023-02-01 00:51:38
509,hammerfest,70.6634,23.6821,30.65,86,20,14.97,NO,2023-02-01 00:51:39
510,dano,11.15,-3.0667,76.28,11,72,6.51,BF,2023-02-01 00:51:39
511,svetlogorsk,52.6333,29.7333,29.44,95,100,7.81,BY,2023-02-01 00:51:40
512,pilar,-9.5972,-35.9567,71.53,85,88,3.83,BR,2023-02-01 00:47:36
513,comodoro rivadavia,-45.8667,-67.5,67.86,45,0,25.32,AR,2023-02-01 00:51:40
514,salalah,17.0151,54.0924,69.89,64,40,4.61,OM,2023-02-01 00:51:40
515,dandong,40.1292,124.3947,23.88,55,0,16.02,CN,2023-02-01 00:51:41
516,arys,42.4252,68.795,34.59,81,100,8.79,KZ,2023-02-01 00:51:41
517,siauliai,55.9333,23.3167,32.02,93,100,12.66,LT,2023-02-01 00:51:42
518,westfield,42.1251,-72.7495,29.84,59,20,8.05,US,2023-02-01 00:48:50
519,taoudenni,22.6783,-3.9836,57.6,20,100,12.62,ML,2023-02-01 00:51:42
520,sainte-maxime,43.3,6.6333,45.19,63,45,3.98,FR,2023-02-01 00:51:42
521,nyurba,63.2842,118.3319,-35.82,99,89,5.53,RU,2023-02-01 00:51:43
522,royan,45.6285,-1.0281,39.78,86,64,4.7,FR,2023-02-01 00:51:43
523,kropotkin,45.4375,40.5756,37.06,93,100,6.02,RU,2023-02-01 00:51:44
524,madina,5.6823,-0.1641,80.56,89,20,5.75,GH,2023-02-01 00:51:44
525,bambanglipuro,-7.95,110.2833,80.24,81,99,2.42,ID,2023-02-01 00:47:42
526,qeshm,26.9581,56.2719,62.49,75,0,16.89,IR,2023-02-01 00:51:45
527,odweyne,9.4092,45.064,59.59,59,7,2.1,SO,2023-02-01 00:51:45
528,lumut,4.2323,100.6298,77.02,88,20,2.3,MY,2023-02-01 00:51:45
529,okhotsk,59.3833,143.3,0.0,95,100,12.59,RU,2023-02-01 00:51:46
530,kimbe,-5.5502,150.1429,81.01,84,96,4.36,PG,2023-02-01 00:51:46
531,kyshtovka,56.555,76.6271,-6.84,99,23,5.19,RU,2023-02-01 00:51:47
532,hambantota,6.1241,81.1185,75.54,100,20,3.44,LK,2023-02-01 00:51:47
533,noumea,-22.2763,166.4572,89.58,65,40,7.74,NC,2023-02-01 00:51:47
534,eirunepe,-6.6603,-69.8736,73.08,98,100,2.57,BR,2023-02-01 00:51:48
535,mount isa,-20.7333,139.5,82.17,61,100,1.14,AU,2023-02-01 00:51:48
536,okha,53.5739,142.9478,-10.07,90,16,9.89,RU,2023-02-01 00:51:49
537,pinos,22.3,-101.5667,58.24,42,41,4.68,MX,2023-02-01 00:51:49
538,coxim,-18.5067,-54.76,76.6,83,97,2.26,BR,2023-02-01 00:51:49
539,mezinovskiy,55.5042,40.3593,25.79,93,100,8.88,RU,2023-02-01 00:51:50
540,bubaque,11.2833,-15.8333,77.45,66,5,13.98,GW,2023-02-01 00:51:50
541,synya,65.3718,58.0387,24.35,92,100,12.71,RU,2023-02-01 00:51:50
542,camacha,33.0833,-16.3333,56.62,67,20,12.66,PT,2023-02-01 00:51:51
543,talnakh,69.4865,88.3972,1.29,96,100,10.11,RU,2023-02-01 00:51:51
544,the valley,18.217,-63.0578,77.09,67,0,18.88,AI,2023-02-01 00:50:12
545,novoagansk,61.9449,76.6625,3.6,97,100,8.08,RU,2023-02-01 00:51:52
546,talara,-4.5772,-81.2719,81.36,69,0,5.75,PE,2023-02-01 00:51:52
547,kawalu,-7.3817,108.2082,76.71,82,99,1.19,ID,2023-02-01 00:51:53
548,chany,55.3121,76.7647,-11.42,97,22,3.42,RU,2023-02-01 00:51:53
549,zaria,11.1113,7.7227,71.35,19,99,8.59,NG,2023-02-01 00:51:53
550,imuris,30.7833,-110.8667,52.79,60,99,5.17,MX,2023-02-01 00:51:54
551,kloulklubed,7.0419,134.2556,81.1,80,100,20.89,PW,2023-02-01 00:51:54
552,faya,18.3851,42.4509,50.11,60,91,3.83,SA,2023-02-01 00:51:54
553,dongning,44.0622,131.1207,14.88,83,100,3.13,CN,2023-02-01 00:51:55
554,ewa beach,21.3156,-158.0072,82.35,65,0,9.22,US,2023-02-01 00:51:55
555,lardos,36.0942,28.0157,49.82,53,100,11.5,GR,2023-02-01 00:51:56
556,tocopilla,-22.092,-70.1979,72.27,78,100,1.57,CL,2023-02-01 00:48:26
557,san patricio,28.017,-97.5169,39.07,81,100,14.7,US,2023-02-01 00:51:56
558,lasa,46.6166,10.7002,29.03,89,28,6.78,IT,2023-02-01 00:51:57
559,moranbah,-22.0016,148.0466,86.7,62,100,16.75,AU,2023-02-01 00:51:57
560,skibbereen,51.55,-9.2667,49.1,76,100,16.22,IE,2023-02-01 00:51:57
561,husavik,66.0449,-17.3389,28.83,95,100,16.84,IS,2023-02-01 00:51:58
562,fukue,32.6881,128.8419,57.56,77,75,3.44,JP,2023-02-01 00:51:58
563,kochki,54.3358,80.4806,-9.47,93,70,3.89,RU,2023-02-01 00:51:59
564,yeppoon,-23.1333,150.7333,83.98,70,90,10.11,AU,2023-02-01 00:51:59
565,stillwater,36.1156,-97.0584,26.87,51,0,5.75,US,2023-02-01 00:47:43
566,marsabit,2.3284,37.9899,68.81,48,1,17.11,KE,2023-02-01 00:52:00
567,katsuura,35.1333,140.3,50.02,49,1,21.18,JP,2023-02-01 00:52:00
568,butte,39.6499,-121.5677,55.62,32,0,3.44,US,2023-02-01 00:52:01
569,ucluelet,48.9329,-125.5528,41.09,91,100,1.01,CA,2023-02-01 00:52:01
570,natal,-5.795,-35.2094,79.45,73,20,11.5,BR,2023-02-01 00:47:40
571,atar,20.5169,-13.0499,66.49,22,21,5.91,MR,2023-02-01 00:52:02
572,avera,33.194,-82.5271,63.55,95,100,5.93,US,2023-02-01 00:52:02
